City,Cloudiness,Country,Date,Humidity,Latitude,Longitude,Max Temp,Min Temp,Wind Speed
Atuona,0,PF,2018-10-22 00:06:31,100,-9.8,-139.03,80.42,80.42,13.22
Turukhansk,88,RU,2018-10-22 00:18:54,93,65.8,87.96,32.41,32.41,12.44
Mataura,0,NZ,2018-10-22 00:18:54,87,-46.19,168.86,66.38,66.38,4.38
Ivanteyevka,90,RU,2018-10-21 23:30:00,81,55.97,37.92,42.8,41.0,6.71
Geraldton,90,CA,2018-10-22 00:00:00,86,49.72,-86.95,30.2,30.2,3.36
Punta Arenas,0,CL,2018-10-21 23:00:00,70,-53.16,-70.91,42.8,42.8,8.05
Moree,0,AU,2018-10-22 00:18:55,85,-29.46,149.84,73.63,73.63,8.19
Port Hedland,36,AU,2018-10-22 00:00:00,35,-20.31,118.58,86.0,86.0,1.12
New Norfolk,75,AU,2018-10-22 00:00:00,55,-42.78,147.06,64.4,64.4,10.29
Tasiilaq,68,GL,2018-10-21 23:50:00,49,65.61,-37.64,23.0,23.0,13.87
Batticaloa,68,LK,2018-10-22 00:18:56,100,7.71,81.69,74.89,74.89,6.96
Saskylakh,44,RU,2018-10-22 00:18:57,81,71.97,114.09,10.09,10.09,8.19
Provideniya,75,RU,2018-10-21 23:30:00,80,64.42,-173.23,39.2,39.2,17.9
Derzhavinsk,0,KZ,2018-10-22 00:18:57,79,51.1,66.31,25.39,25.39,4.94
Tuktoyaktuk,90,CA,2018-10-22 00:00:00,92,69.44,-133.03,21.2,21.2,14.99
Katobu,0,ID,2018-10-22 00:18:58,91,-4.94,122.53,83.57,83.57,2.37
Albany,90,US,2018-10-21 23:54:00,51,42.65,-73.75,39.2,35.6,11.41
Saint-Philippe,75,CA,2018-10-22 00:00:00,51,45.36,-73.48,37.4,32.0,12.75
Fort Nelson,75,CA,2018-10-22 00:00:00,42,58.81,-122.69,48.2,48.2,2.24
Nouadhibou,92,MR,2018-10-22 00:00:00,69,20.93,-17.03,73.4,73.4,13.87
Pozo Colorado,0,PY,2018-10-22 00:18:59,50,-23.49,-58.8,83.53,83.53,9.98
Atambua,8,ID,2018-10-22 00:18:59,87,-9.11,124.89,82.09,82.09,3.83
Mujiayingzi,0,CN,2018-10-22 00:18:59,82,42.12,118.78,41.36,41.36,4.5
Petropavlovsk-Kamchatskiy,12,RU,2018-10-21 23:30:00,64,53.05,158.65,37.4,37.4,6.71
Usinsk,92,RU,2018-10-22 00:19:00,93,66.0,57.56,19.67,19.67,13.67
Miraflores,80,CO,2018-10-22 00:19:00,95,5.2,-73.14,55.54,55.54,1.25
Clyde River,90,CA,2018-10-22 00:00:00,85,70.47,-68.59,12.2,12.2,14.99
Lincoln,1,US,2018-10-21 23:54:00,51,40.8,-96.67,68.0,60.8,9.17
Kodiak,1,US,2018-10-21 22:53:00,42,39.95,-94.76,64.4,64.4,8.05
Port Lincoln,12,AU,2018-10-22 00:19:01,85,-34.72,135.86,64.31,64.31,8.41
Katsuura,75,JP,2018-10-21 23:00:00,82,33.93,134.5,59.0,59.0,4.7
Vaini,64,IN,2018-10-22 00:19:02,68,15.34,74.49,72.05,72.05,4.38
Butaritari,24,KI,2018-10-22 00:19:02,100,3.07,172.79,84.56,84.56,7.18
Srednekolymsk,0,RU,2018-10-22 00:19:02,78,67.46,153.71,2.26,2.26,2.48
Ushuaia,20,AR,2018-10-21 23:00:00,52,-54.81,-68.31,42.8,42.8,23.04
Bima,0,ID,2018-10-22 00:19:03,97,-8.45,118.73,77.9,77.9,2.82
Junction City,1,US,2018-10-21 22:56:00,40,39.03,-96.83,68.0,66.2,11.41
Bluff,0,AU,2018-10-22 00:19:03,62,-23.58,149.07,79.93,79.93,9.08
Hobart,75,AU,2018-10-22 00:00:00,55,-42.88,147.33,64.4,64.4,10.29
Bani,0,PH,2018-10-22 00:19:04,89,15.89,120.27,80.6,80.6,3.38
Qaanaaq,20,GL,2018-10-22 00:19:04,100,77.48,-69.36,5.23,5.23,11.54
Gloucester,0,GB,2018-10-21 23:50:00,71,51.87,-2.25,50.0,48.2,14.99
Nishihara,1,JP,2018-10-21 23:56:00,55,35.74,139.53,62.6,59.0,4.5
May Pen,20,JM,2018-10-21 23:00:00,70,17.97,-77.26,86.0,86.0,8.05
Auki,0,NG,2018-10-22 00:19:05,54,12.18,6.51,65.3,65.3,3.49
Namibe,32,AO,2018-10-22 00:19:05,100,-15.19,12.15,71.06,71.06,7.74
Opuwo,12,NA,2018-10-22 00:19:05,59,-18.06,13.84,61.03,61.03,3.15
Calatayud,0,ES,2018-10-22 00:00:00,93,41.35,-1.64,60.8,59.0,3.36
Walvis Bay,100,NA,2018-10-21 23:00:00,82,-22.95,14.51,59.0,59.0,3.36
Norman Wells,75,CA,2018-10-22 00:00:00,74,65.28,-126.83,35.6,35.6,4.16
East London,68,ZA,2018-10-22 00:19:09,100,-33.02,27.91,63.64,63.64,17.13
Saint-Pierre,0,FR,2018-10-22 00:00:00,81,48.95,4.24,44.6,41.0,8.05
Port Elizabeth,1,US,2018-10-21 23:56:00,69,39.31,-74.98,48.2,39.2,3.36
Yar-Sale,8,RU,2018-10-22 00:19:10,100,66.83,70.83,9.01,9.01,5.95
Hithadhoo,48,MV,2018-10-22 00:19:10,100,-0.6,73.08,77.72,77.72,3.71
Callaway,1,US,2018-10-21 23:53:00,52,46.98,-95.91,51.8,39.2,7.96
Busselton,92,AU,2018-10-22 00:19:11,100,-33.64,115.35,60.17,60.17,15.23
Zhanaozen,0,KZ,2018-10-22 00:19:11,62,43.35,52.85,47.53,47.53,8.97
Tessalit,48,ML,2018-10-22 00:19:11,21,20.2,1.01,85.73,85.73,12.66
Bethel,90,US,2018-10-21 23:53:00,86,60.79,-161.76,37.4,37.4,19.46
Bredasdorp,0,ZA,2018-10-22 00:00:00,72,-34.53,20.04,60.8,60.8,20.8
Jalu,36,LY,2018-10-22 00:19:12,66,29.03,21.55,69.76,69.76,7.52
Sembakung,92,ID,2018-10-22 00:19:12,95,3.82,117.25,76.55,76.55,2.71
Tuatapere,0,NZ,2018-10-22 00:19:13,82,-46.13,167.69,58.96,58.96,1.7
Port Alfred,8,ZA,2018-10-22 00:19:13,92,-33.59,26.89,61.66,61.66,18.92
Nikolskoye,0,RU,2018-10-21 23:30:00,75,59.7,30.79,46.4,46.4,4.47
Dasoguz,0,TM,2018-10-21 23:30:00,70,41.84,59.97,44.6,44.6,6.93
Ziro,12,IN,2018-10-22 00:19:14,93,27.54,93.82,51.26,51.26,1.7
Richards Bay,92,ZA,2018-10-22 00:19:14,80,-28.77,32.06,61.03,61.03,10.2
Conceicao da Barra,88,BR,2018-10-22 00:19:14,90,-18.59,-39.73,74.44,74.44,11.99
Cockburn Town,0,TC,2018-10-22 00:16:29,100,21.46,-71.14,81.59,81.59,11.21
Carnarvon,88,ZA,2018-10-22 00:19:15,16,-30.97,22.13,62.06,62.06,12.44
Souillac,0,FR,2018-10-22 00:00:00,71,45.6,-0.6,53.6,51.8,3.36
Cuamba,20,MZ,2018-10-22 00:19:15,78,-14.8,36.54,61.93,61.93,13.78
Killam,0,CA,2018-10-22 00:19:15,35,52.79,-111.86,48.16,48.16,9.98
Ukiah,1,US,2018-10-21 23:56:00,58,39.15,-123.21,80.6,80.6,8.05
Paamiut,88,GL,2018-10-22 00:19:16,100,61.99,-49.67,29.75,29.75,7.63
Lagoa,40,PT,2018-10-22 00:00:00,88,37.14,-8.45,62.6,62.6,8.05
Cape Town,0,ZA,2018-10-22 00:00:00,63,-33.93,18.42,60.8,60.8,6.93
Avarua,75,CK,2018-10-22 00:00:00,57,-21.21,-159.78,75.2,75.2,9.17
Namatanai,48,PG,2018-10-22 00:19:17,100,-3.66,152.44,82.67,82.67,4.16
Baruun-Urt,36,MN,2018-10-22 00:19:17,89,46.68,113.28,30.74,30.74,16.02
Margate,75,AU,2018-10-22 00:00:00,55,-43.03,147.26,64.4,64.4,10.29
Hermanus,0,ZA,2018-10-22 00:19:18,33,-34.42,19.24,63.41,63.41,7.07
Jamestown,0,AU,2018-10-22 00:19:18,28,-33.21,138.6,76.55,76.55,15.57
Esperance,20,TT,2018-10-21 23:00:00,94,10.24,-61.45,78.8,78.8,3.36
Itoman,75,JP,2018-10-21 23:56:00,78,26.12,127.67,77.0,75.2,13.87
Ialibu,76,PG,2018-10-22 00:19:19,87,-6.28,143.99,60.31,60.31,2.48
Lady Frere,32,ZA,2018-10-22 00:19:19,93,-31.7,27.23,31.51,31.51,2.26
Great Yarmouth,56,GB,2018-10-21 23:50:00,71,52.61,1.73,55.4,55.4,10.29
Kudahuvadhoo,64,MV,2018-10-22 00:19:20,100,2.67,72.89,82.76,82.76,10.42
Victoria,75,BN,2018-10-22 00:00:00,83,5.28,115.24,80.6,78.8,8.05
Nome,1,US,2018-10-21 23:55:00,59,30.04,-94.42,64.4,59.0,4.7
Roald,80,NO,2018-10-21 23:50:00,75,62.58,6.12,44.6,42.8,31.09
Kieta,68,PG,2018-10-22 00:19:21,93,-6.22,155.63,82.31,82.31,3.94
Evensk,80,RU,2018-10-22 00:19:21,100,61.92,159.24,30.47,30.47,7.18
La Rioja,88,AR,2018-10-22 00:19:21,87,-29.41,-66.86,65.48,65.48,5.06
Mahebourg,75,MU,2018-10-21 23:00:00,83,-20.41,57.7,75.2,75.2,11.41
Castro,88,CL,2018-10-22 00:19:22,89,-42.48,-73.76,47.26,47.26,4.94
Rikitea,100,PF,2018-10-22 00:19:22,98,-23.12,-134.97,75.34,75.34,8.63
Kupang,0,ID,2018-10-22 00:19:22,88,-10.16,123.6,82.85,82.85,1.7
Virginia Beach,1,US,2018-10-21 23:59:00,57,36.85,-75.98,53.6,39.2,13.87
Fianarantsoa,0,MG,2018-10-22 00:19:22,86,-21.45,47.09,44.29,44.29,3.38
Quatre Cocos,75,MU,2018-10-21 23:00:00,83,-20.21,57.76,75.2,75.2,11.41
Marzuq,0,YE,2018-10-22 00:19:23,93,14.4,46.47,54.19,54.19,2.26
Chuy,8,UY,2018-10-22 00:19:23,81,-33.69,-53.46,59.36,59.36,13.78
Gashua,0,NG,2018-10-22 00:19:23,38,12.87,11.04,69.98,69.98,5.17
Coquimbo,0,CL,2018-10-21 23:00:00,76,-29.95,-71.34,57.2,57.2,11.41
Aykhal,48,RU,2018-10-22 00:19:24,86,65.95,111.51,20.44,20.44,3.15
Sambava,20,MG,2018-10-22 00:19:24,100,-14.27,50.17,76.28,76.28,5.28
Awjilah,12,LY,2018-10-22 00:19:24,63,29.14,21.3,70.16,70.16,5.73
Hearst,88,CA,2018-10-22 00:16:13,82,49.69,-83.67,31.1,31.1,2.59
Nouakchott,88,MR,2018-10-22 00:16:15,92,18.08,-15.98,76.82,76.82,26.75
Sao Joao da Barra,75,BR,2018-10-21 23:00:00,73,-21.64,-41.05,69.8,69.8,3.36
Tiksi,12,RU,2018-10-22 00:19:25,71,71.64,128.87,-2.11,-2.11,3.71
Middelburg,0,ZA,2018-10-22 00:19:25,82,-25.77,29.46,40.69,40.69,7.96
Hilo,1,US,2018-10-21 23:08:00,69,19.71,-155.08,82.4,64.4,8.05
Lata,0,IN,2018-10-22 00:19:26,55,30.78,78.62,40.37,40.37,3.04
Thompson,75,CA,2018-10-22 00:00:00,93,55.74,-97.86,37.4,37.4,12.75
Sal Rei,75,CV,2018-10-22 00:00:00,78,16.18,-22.92,77.0,77.0,10.29
Lompoc,20,US,2018-10-21 23:58:00,77,34.64,-120.46,71.6,60.8,11.41
Myitkyina,8,MM,2018-10-22 00:19:26,96,25.38,97.4,65.98,65.98,2.04
Chokurdakh,76,RU,2018-10-22 00:19:27,85,70.62,147.9,12.61,12.61,12.77
Shingu,20,JP,2018-10-21 23:00:00,55,33.72,135.99,64.4,64.4,8.05
Dikson,56,RU,2018-10-22 00:19:27,100,73.51,80.55,24.08,24.08,7.96
Aguimes,20,ES,2018-10-22 00:00:00,77,27.91,-15.45,68.0,68.0,4.7
Cotonou,40,BJ,2018-10-22 00:00:00,83,6.37,2.43,82.4,82.4,6.93
Yellowknife,75,CA,2018-10-22 00:00:00,79,62.45,-114.38,28.4,28.4,3.36
Gigmoto,76,PH,2018-10-22 00:19:28,100,13.78,124.39,80.06,80.06,6.06
Tam Ky,40,VN,2018-10-22 00:00:00,94,15.57,108.48,78.8,78.8,3.36
Natal,40,BR,2018-10-21 23:00:00,78,-5.81,-35.21,78.8,78.8,5.82
Andreapol,0,RU,2018-10-22 00:19:29,87,56.65,32.27,30.43,30.43,10.31
Salamiyah,20,SY,2018-10-22 00:19:29,85,35.01,37.05,48.47,48.47,2.71
La Romana,20,DO,2018-10-21 23:00:00,88,18.43,-68.97,78.8,78.8,4.7
Kropotkin,56,RU,2018-10-22 00:19:29,85,45.43,40.58,56.84,56.84,7.29
Yamada,20,JP,2018-10-21 23:00:00,58,36.58,137.08,57.2,51.8,6.93
Mercedes,56,UY,2018-10-22 00:19:30,58,-33.25,-58.03,67.73,67.73,6.51
Iqaluit,5,CA,2018-10-22 00:00:00,71,63.75,-68.52,6.8,6.8,10.29
Saldanha,20,PT,2018-10-22 00:19:30,92,41.42,-6.55,51.49,51.49,3.15
Gold Coast,40,AU,2018-10-22 00:00:00,64,-28.0,153.41,75.2,75.2,11.41
Hasaki,20,JP,2018-10-21 23:30:00,72,35.73,140.83,60.8,57.2,8.05
Codrington,68,AU,2018-10-22 00:19:31,95,-28.95,153.24,67.55,67.55,4.38
Haines Junction,80,CA,2018-10-22 00:19:32,63,60.75,-137.51,42.17,42.17,5.95
Fairbanks,1,US,2018-10-21 23:58:00,57,64.84,-147.72,51.8,44.6,9.17
Puerto Ayora,0,EC,2018-10-21 23:00:00,61,-0.74,-90.35,78.8,78.8,12.75
Saint-Francois,0,FR,2018-10-22 00:00:00,100,46.42,3.91,37.4,37.4,2.24
Sao Filipe,64,CV,2018-10-22 00:19:33,98,14.9,-24.5,79.03,79.03,10.42
Khatanga,36,RU,2018-10-22 00:19:33,76,71.98,102.47,5.59,5.59,6.85
Veraval,0,FR,2018-10-22 00:00:00,93,49.65,0.71,57.2,50.0,3.36
Kavieng,80,PG,2018-10-22 00:19:34,100,-2.57,150.8,83.48,83.48,4.72
Severo-Kurilsk,56,RU,2018-10-22 00:19:34,100,50.68,156.12,41.45,41.45,7.07
Ponta do Sol,8,BR,2018-10-22 00:19:34,76,-20.63,-46.0,65.39,65.39,5.39
Cayenne,0,GF,2018-10-21 23:30:00,83,4.94,-52.33,80.6,80.6,8.05
Merauke,12,ID,2018-10-22 00:19:35,74,-8.49,140.4,85.33,85.33,10.98
Upernavik,76,GL,2018-10-22 00:19:35,100,72.79,-56.15,22.51,22.51,13.78
Basco,1,US,2018-10-22 00:15:00,43,40.33,-91.2,53.6,50.0,14.0
Pevek,76,RU,2018-10-22 00:19:35,100,69.7,170.27,21.11,21.11,6.17
Kuito,20,AO,2018-10-22 00:19:36,92,-12.38,16.94,59.0,59.0,1.36
Lavrentiya,32,RU,2018-10-22 00:19:36,100,65.58,-170.99,39.38,39.38,29.55
Khandyga,56,RU,2018-10-22 00:19:36,85,62.65,135.58,15.35,15.35,2.82
Hatton,88,LK,2018-10-22 00:19:36,97,6.89,80.6,70.03,70.03,2.71
Dengzhou,32,CN,2018-10-22 00:19:37,91,32.69,112.08,51.89,51.89,3.15
Piracicaba,0,BR,2018-10-21 23:00:00,68,-22.73,-47.65,64.4,64.4,19.46
Morro Bay,1,US,2018-10-21 23:56:00,68,35.37,-120.85,87.8,66.2,11.41
Inirida,8,CO,2018-10-22 00:19:37,93,3.87,-67.92,76.28,76.28,1.48
Mount Gambier,32,AU,2018-10-22 00:19:05,64,-37.83,140.78,66.29,66.29,10.09
Laguna,20,MX,2018-10-21 23:42:00,41,27.52,-110.01,91.4,91.4,10.29
Longyearbyen,75,NO,2018-10-21 23:20:00,69,78.22,15.63,39.2,39.2,17.22
Urengoy,80,RU,2018-10-22 00:19:38,98,65.96,78.37,27.64,27.64,9.64
Pringsewu,56,ID,2018-10-22 00:19:38,84,-5.36,104.98,76.78,76.78,1.7
Hervey Bay,24,AU,2018-10-22 00:19:39,100,-25.3,152.85,70.93,70.93,3.94
Boa Vista,20,BR,2018-10-21 23:00:00,66,2.82,-60.67,84.2,84.2,5.82
Kaka,80,TM,2018-10-22 00:19:39,65,37.35,59.62,43.03,43.03,2.37
Marathon,92,CA,2018-10-22 00:19:40,100,48.72,-86.38,38.57,38.57,13.67
Kristinehamn,8,SE,2018-10-21 23:50:00,76,59.31,14.11,53.6,48.2,11.41
Najran,40,SA,2018-10-21 23:00:00,73,17.54,44.22,69.8,69.8,5.82
Kaitangata,12,NZ,2018-10-22 00:19:40,80,-46.28,169.85,61.79,61.79,5.73
Ilulissat,44,GL,2018-10-21 23:50:00,60,69.22,-51.1,10.4,10.4,25.28
Kihei,20,US,2018-10-21 23:56:00,62,20.76,-156.45,87.8,78.8,19.46
Hobyo,88,SO,2018-10-22 00:19:41,92,5.35,48.53,76.37,76.37,6.62
Airai,0,TL,2018-10-22 00:19:41,64,-8.93,125.41,79.25,79.25,2.37
Hereford,20,GB,2018-10-22 00:19:12,79,52.06,-2.72,46.94,46.94,11.1
Port Augusta,0,AU,2018-10-22 00:00:00,13,-32.49,137.76,82.4,82.4,23.04
Barrow,92,AR,2018-10-22 00:19:42,65,-38.31,-60.23,61.66,61.66,5.61
Kapaa,20,US,2018-10-21 23:56:00,65,22.08,-159.32,86.0,82.4,13.87
Mandan,1,US,2018-10-21 23:55:00,40,46.83,-100.89,55.4,51.8,8.05
Mar del Plata,92,AR,2018-10-22 00:19:43,97,-46.43,-67.52,42.53,42.53,24.18
Gualaceo,75,EC,2018-10-21 23:00:00,63,-2.89,-78.78,60.8,60.8,11.41
Flin Flon,75,CA,2018-10-21 23:00:00,45,54.77,-101.88,48.2,48.2,16.11
Surgut,75,RU,2018-10-21 23:30:00,92,61.25,73.4,28.4,28.4,15.66
Boguchany,48,RU,2018-10-22 00:19:44,92,58.38,97.46,25.25,25.25,6.4
San Quintin,20,PH,2018-10-21 23:00:00,83,17.54,120.52,75.2,75.2,2.24
Lakes Entrance,0,AU,2018-10-22 00:19:44,77,-37.88,147.99,63.59,63.59,2.71
Ancud,76,CL,2018-10-22 00:19:44,81,-41.87,-73.83,48.38,48.38,4.16
San Cristobal,40,EC,2018-10-21 23:00:00,55,-0.39,-78.55,60.8,60.8,16.11
Datong,0,CN,2018-10-22 00:19:45,67,40.09,113.3,33.76,33.76,10.42
Sabang,88,PH,2018-10-22 00:19:45,100,13.72,123.58,78.58,78.58,3.49
Ulaanbaatar,75,MN,2018-10-21 23:30:00,73,47.92,106.92,24.8,24.8,6.71
Axim,0,GH,2018-10-22 00:19:46,100,4.87,-2.24,80.83,80.83,9.19
Tabora,0,TZ,2018-10-22 00:19:46,43,-5.02,32.81,72.14,72.14,15.23
Koulamoutou,68,GA,2018-10-22 00:19:46,97,-1.13,12.47,72.32,72.32,2.15
Guerrero Negro,0,MX,2018-10-22 00:19:46,53,27.97,-114.04,79.03,79.03,7.96
Lebu,20,ET,2018-10-22 00:00:00,82,8.96,38.73,55.4,55.4,3.36
Cabedelo,20,BR,2018-10-21 23:00:00,78,-6.97,-34.84,78.8,78.8,10.29
Torbay,90,CA,2018-10-22 00:00:00,93,47.66,-52.73,57.2,57.2,28.86
Champerico,40,MX,2018-10-21 23:47:00,74,16.38,-93.6,78.8,78.8,8.05
Makakilo City,1,US,2018-10-21 23:57:00,46,21.35,-158.09,89.6,82.4,6.93
Santa Maria,0,BR,2018-10-21 23:00:00,72,-29.69,-53.81,66.2,66.2,5.82
Faanui,12,PF,2018-10-22 00:19:50,99,-16.48,-151.75,81.05,81.05,14.0
Charleston,1,US,2018-10-21 23:54:00,86,38.35,-81.63,37.4,37.4,2.93
Klaksvik,76,FO,2018-10-21 23:50:00,70,62.23,-6.59,42.8,42.8,31.09
Tornio,90,FI,2018-10-21 23:50:00,93,61.12,27.27,50.0,48.2,19.46
Cabo San Lucas,75,MX,2018-10-21 23:49:00,74,22.89,-109.91,87.8,82.4,5.82
Ndago,24,UG,2018-10-22 00:19:52,100,-0.97,29.98,51.58,51.58,2.37
Sao Gabriel da Cachoeira,36,BR,2018-10-22 00:19:52,88,-0.13,-67.09,80.51,80.51,0.92
Bambous Virieux,75,MU,2018-10-21 23:00:00,83,-20.34,57.76,75.2,75.2,11.41
Touros,44,BR,2018-10-22 00:19:52,94,-5.2,-35.46,76.69,76.69,7.85
Pallasovka,36,RU,2018-10-22 00:19:53,71,50.04,46.89,47.44,47.44,10.76
Caconda,20,AO,2018-10-22 00:19:53,94,-13.73,15.06,60.58,60.58,4.16
Kampar,75,MY,2018-10-22 00:00:00,88,4.31,101.15,77.0,75.2,4.7
Georgetown,75,GY,2018-10-21 23:00:00,94,6.8,-58.16,78.8,78.8,4.7
Bilibino,76,RU,2018-10-22 00:19:54,76,68.06,166.44,10.67,10.67,2.93
Lakatoro,12,VU,2018-10-22 00:19:54,83,-16.11,167.42,81.19,81.19,14.12
Talcahuano,0,CL,2018-10-21 23:00:00,66,-36.72,-73.12,55.4,55.4,17.22
Udon Thani,75,TH,2018-10-22 00:00:00,100,17.4,102.79,75.2,75.2,4.27
Talnakh,92,RU,2018-10-22 00:19:58,83,69.49,88.39,23.23,23.23,4.38
Luderitz,68,NA,2018-10-21 23:00:00,93,-26.65,15.16,57.2,57.2,3.36
Bandarbeyla,44,SO,2018-10-22 00:15:25,100,9.49,50.81,75.83,75.83,7.52
Broome,76,GB,2018-10-21 23:56:00,71,52.47,1.45,55.4,51.8,10.29
Pisco,0,PE,2018-10-21 23:00:00,82,-13.71,-76.2,64.4,64.4,16.11
Bilma,44,NE,2018-10-22 00:19:59,30,18.69,12.92,68.86,68.86,2.59
Bathsheba,40,BB,2018-10-21 23:00:00,88,13.22,-59.52,80.6,80.6,14.99
Port Hardy,20,CA,2018-10-22 00:00:00,87,50.7,-127.42,50.0,50.0,3.36
Ribeira Grande,48,PT,2018-10-22 00:20:00,99,38.52,-28.7,69.13,69.13,20.27
Lorengau,64,PG,2018-10-22 00:20:01,100,-2.02,147.27,79.39,79.39,5.84
Zhigansk,80,RU,2018-10-22 00:20:01,96,66.77,123.37,25.84,25.84,2.93
La Ronge,20,CA,2018-10-22 00:00:00,48,55.1,-105.3,44.6,44.6,19.46
Mutis,88,CO,2018-10-22 00:20:01,100,6.23,-77.4,72.91,72.91,0.92
Bondoukou,68,CI,2018-10-22 00:20:02,96,8.04,-2.8,70.7,70.7,7.63
Grindavik,75,IS,2018-10-21 23:30:00,65,63.84,-22.43,41.0,41.0,28.86
Oranjestad,75,AW,2018-10-21 23:36:00,88,12.52,-70.03,80.6,80.6,9.17
Tommot,88,RU,2018-10-22 00:20:02,90,58.97,126.27,25.07,25.07,2.93
Portland,20,US,2018-10-21 23:53:00,40,45.52,-122.67,69.8,66.2,4.7
Diffa,0,NE,2018-10-22 00:20:03,49,13.32,12.61,66.65,66.65,3.6
Baykit,88,RU,2018-10-22 00:20:03,87,61.68,96.39,25.93,25.93,7.96
Cam Ranh,20,VN,2018-10-22 00:20:03,99,11.92,109.15,77.68,77.68,7.29
Farafangana,0,MG,2018-10-22 00:20:04,100,-22.82,47.83,67.55,67.55,22.06
Te Anau,0,NZ,2018-10-22 00:20:04,68,-45.41,167.72,63.05,63.05,3.6
Spentrup,56,DK,2018-10-21 23:50:00,87,56.54,10.03,53.6,50.0,14.99
Parabel,88,RU,2018-10-22 00:20:04,96,58.71,81.5,32.9,32.9,6.62
Ouango,24,CD,2018-10-22 00:20:05,97,4.31,22.55,71.38,71.38,2.15
Kotido,0,UG,2018-10-22 00:20:05,68,3.01,34.12,67.24,67.24,11.99
Matara,68,PE,2018-10-22 00:20:05,86,-13.74,-72.9,47.53,47.53,1.36
Talara,0,PE,2018-10-21 23:00:00,77,-4.58,-81.27,68.0,68.0,20.8
Clarence Town,75,AU,2018-10-22 00:00:00,73,-32.59,151.78,69.8,69.8,9.17
Alofi,92,NU,2018-10-22 00:00:00,65,-19.06,-169.92,77.0,77.0,20.8
San Jose,0,PH,2018-10-22 00:15:59,80,15.79,120.99,77.18,77.18,2.82
Washington DC.,20,US,2018-10-21 23:56:00,49,38.9,-77.04,50.0,42.8,13.87
Mount Isa,0,AU,2018-10-22 00:00:00,9,-20.73,139.49,89.6,89.6,9.17
Tomatlan,92,MX,2018-10-22 00:20:08,97,19.93,-105.25,74.21,74.21,2.37
Beyneu,0,KZ,2018-10-22 00:20:08,74,45.32,55.19,34.93,34.93,2.82
Dingle,48,PH,2018-10-22 00:18:10,88,11.0,122.67,80.51,80.51,3.94
Sistranda,75,NO,2018-10-21 23:50:00,81,63.73,8.83,42.8,42.8,19.46
Gat,8,SN,2018-10-21 23:00:00,69,14.69,-16.54,80.6,80.6,10.65
Ghanzi,100,BW,2018-10-22 00:20:09,41,-21.7,21.65,70.88,70.88,19.37
Erenhot,32,CN,2018-10-22 00:20:09,63,43.65,111.97,35.38,35.38,20.49
Iracoubo,0,GF,2018-10-22 00:20:09,74,5.48,-53.21,79.84,79.84,7.07
Birin,20,SY,2018-10-22 00:20:10,86,35.01,36.67,50.23,50.23,2.37
Kimbe,48,PG,2018-10-22 00:20:10,100,-5.56,150.15,82.58,82.58,1.59
Fort Frances,1,CA,2018-10-21 22:55:00,52,48.61,-93.4,44.6,44.6,5.82
Fortuna,20,ES,2018-10-22 00:00:00,93,38.18,-1.13,68.0,64.4,3.36
San Patricio,0,PY,2018-10-22 00:20:11,76,-26.98,-56.83,74.57,74.57,3.71
Mocoa,32,CO,2018-10-22 00:20:11,97,1.15,-76.65,59.72,59.72,1.92
Ciudad Bolivar,24,VE,2018-10-22 00:20:11,79,8.12,-63.55,82.36,82.36,5.61
Saint-Prosper,44,CA,2018-10-22 00:20:11,50,46.21,-70.48,29.71,29.71,11.43
Los Llanos de Aridane,0,ES,2018-10-22 00:00:00,68,28.66,-17.92,68.0,68.0,6.93
Mahbubabad,8,IN,2018-10-22 00:20:12,87,17.62,80.02,72.41,72.41,2.93
Sept-Iles,20,CA,2018-10-22 00:00:00,63,50.2,-66.38,28.4,28.4,10.29
Nanortalik,92,GL,2018-10-22 00:20:12,99,60.14,-45.24,33.35,33.35,15.01
Bantogon,36,PH,2018-10-22 00:19:27,90,6.53,124.03,76.19,76.19,3.04
Catuday,0,PH,2018-10-22 00:20:13,95,16.29,119.81,82.54,82.54,5.17
Marsh Harbour,48,BS,2018-10-22 00:20:13,100,26.54,-77.06,80.51,80.51,18.59
Fuerte Olimpo,12,BR,2018-10-22 00:20:13,63,-21.04,-57.87,80.56,80.56,8.75
Tura,0,IN,2018-10-22 00:20:13,89,25.52,90.21,65.08,65.08,2.48
Acapulco,75,MX,2018-10-21 23:48:00,78,16.86,-99.88,82.4,82.4,5.82
Camacha,40,PT,2018-10-22 00:00:00,88,33.08,-16.33,66.2,64.4,2.48
Mountain Home,1,US,2018-10-21 23:58:00,42,43.13,-115.69,68.0,66.2,5.82
Kuytun,32,RU,2018-10-22 00:20:15,85,54.34,101.51,22.78,22.78,5.06
Kampene,56,CD,2018-10-22 00:20:15,97,-3.59,26.67,68.27,68.27,2.15
Gushikawa,20,JP,2018-10-21 23:56:00,69,26.35,127.87,77.0,75.2,13.87
Alakurtti,92,RU,2018-10-22 00:20:15,97,66.96,30.34,39.56,39.56,5.61
Husavik,0,CA,2018-10-22 00:20:16,80,50.56,-96.99,43.39,43.39,9.19
Plettenberg Bay,0,ZA,2018-10-22 00:20:16,92,-34.05,23.37,62.11,62.11,23.85
Mbandaka,56,CD,2018-10-22 00:20:16,99,0.05,18.26,74.53,74.53,2.59
Old Saybrook,1,US,2018-10-21 23:56:00,48,41.29,-72.38,44.6,37.4,4.7
Kapchorwa,12,UG,2018-10-22 00:20:16,95,1.4,34.45,56.21,56.21,0.25
Santa Rosa de Aguan,68,HN,2018-10-22 00:20:17,99,15.95,-85.71,82.81,82.81,15.35
Port Keats,24,AU,2018-10-22 00:20:17,76,-14.25,129.55,90.14,90.14,4.27
Dubovka,0,RU,2018-10-21 23:30:00,81,49.06,44.83,51.8,51.8,6.71
Banda Aceh,8,ID,2018-10-22 00:20:17,99,5.56,95.32,74.39,74.39,1.03
High Level,40,CA,2018-10-22 00:00:00,45,58.52,-117.13,46.4,46.4,2.24
Balud,20,PH,2018-10-22 00:20:18,100,12.22,124.89,79.84,79.84,4.61
Verkhoyansk,68,RU,2018-10-22 00:20:19,75,67.55,133.39,7.03,7.03,2.71
Mirabad,20,IR,2018-10-22 00:20:19,81,28.27,61.33,46.94,46.94,2.59
Pinega,92,RU,2018-10-22 00:20:19,97,64.7,43.39,40.19,40.19,9.98
Cidreira,0,BR,2018-10-22 00:20:19,73,-30.17,-50.22,64.76,64.76,16.35
Oranjemund,64,ZA,2018-10-22 00:20:20,89,-28.55,16.43,60.76,60.76,12.33
Male,0,UA,2018-10-22 00:20:20,92,50.74,33.7,36.19,36.19,8.08
Poum,92,MK,2018-10-22 00:20:20,100,41.28,20.71,45.23,45.23,2.15
Sumenep,0,ID,2018-10-22 00:20:20,95,-7.02,113.87,83.03,83.03,9.75
Salalah,0,OM,2018-10-21 22:50:00,78,17.01,54.1,75.2,75.2,3.36
Luanda,75,AO,2018-10-21 23:00:00,94,-8.83,13.24,75.2,75.2,2.24
Macae,56,BR,2018-10-22 00:20:21,81,-22.37,-41.79,59.59,59.59,2.71
Georgiyevka,8,RU,2018-10-22 00:20:21,79,52.25,40.45,42.44,42.44,7.18
Shitanjing,0,CN,2018-10-22 00:20:22,72,39.23,106.34,24.94,24.94,3.6
Andover,20,US,2018-10-21 23:56:00,47,42.66,-71.14,42.8,35.6,5.82
Hazebrouck,88,FR,2018-10-22 00:00:00,87,50.72,2.54,59.0,46.4,5.82
Ahipara,0,NZ,2018-10-22 00:20:23,63,-35.17,173.16,68.9,68.9,2.26
Cherskiy,68,RU,2018-10-22 00:20:23,89,68.75,161.3,9.95,9.95,3.83
Palana,48,RU,2018-10-22 00:20:23,94,59.08,159.95,32.68,32.68,3.38
Narsaq,92,GL,2018-10-21 23:50:00,85,60.91,-46.05,24.8,24.8,3.36
Bereda,12,ES,2018-10-22 00:00:00,87,43.27,-7.54,59.0,59.0,2.24
El Sauzal,20,AR,2018-10-21 23:00:00,57,-24.3,-64.96,78.8,78.8,3.36
Aswan,0,EG,2018-10-21 23:00:00,28,24.09,32.9,84.2,84.2,3.36
Sciacca,20,IT,2018-10-21 23:55:00,88,37.51,13.08,68.0,68.0,10.29
Ekibastuz,48,KZ,2018-10-22 00:20:25,91,51.72,75.32,38.08,38.08,9.42
Pembroke,90,CA,2018-10-22 00:00:00,55,45.82,-77.11,33.8,33.8,2.24
Conakry,75,GN,2018-10-22 00:00:00,88,9.52,-13.7,80.6,80.6,9.17
Nemuro,75,JP,2018-10-21 23:30:00,81,43.32,145.57,48.2,48.2,2.24
Terrace Bay,88,CA,2018-10-22 00:18:23,100,48.78,-87.1,40.64,40.64,14.79
Arraial do Cabo,32,BR,2018-10-22 00:20:26,96,-22.97,-42.02,68.18,68.18,6.96
Westport,8,IE,2018-10-22 00:20:27,98,53.8,-9.52,46.76,46.76,9.75
Broken Hill,0,AU,2018-10-22 00:20:27,37,-31.97,141.45,76.37,76.37,12.44
Jishou,56,CN,2018-10-22 00:20:28,98,28.26,109.7,53.42,53.42,3.38
Aitape,32,PG,2018-10-22 00:20:28,100,-3.15,142.36,80.83,80.83,2.82
Egvekinot,36,RU,2018-10-22 00:20:28,70,66.32,-179.17,20.66,20.66,3.49
Abasolo,40,MX,2018-10-21 23:42:00,56,20.45,-101.53,68.0,68.0,13.87
Pacific Grove,75,US,2018-10-22 00:04:00,72,36.62,-121.92,69.8,60.8,9.17
Rovaniemi,90,FI,2018-10-21 23:50:00,93,66.5,25.72,42.8,42.8,8.05
Santiago del Estero,88,AR,2018-10-22 00:20:29,92,-27.8,-64.26,72.41,72.41,8.63
Edson,1,CA,2018-10-22 00:00:00,31,53.59,-116.44,48.2,48.2,3.36
Sabla,0,NG,2018-10-22 00:20:30,66,12.75,4.71,67.06,67.06,2.71
Tsabong,92,BW,2018-10-22 00:20:30,65,-26.02,22.4,67.01,67.01,11.1
Anage,92,BR,2018-10-22 00:20:30,70,-14.61,-41.14,71.51,71.51,13.78
Barabai,36,ID,2018-10-22 00:20:31,88,-2.59,115.38,77.9,77.9,2.93
Mackenzie,1,CA,2018-10-22 00:00:00,54,55.34,-123.09,44.6,44.6,2.24
Labuhan,56,ID,2018-10-22 00:20:31,88,-2.54,115.51,76.69,76.69,2.37
Port Blair,64,IN,2018-10-22 00:20:31,100,11.67,92.75,80.56,80.56,0.92
Rawson,68,AR,2018-10-22 00:20:32,37,-43.3,-65.11,58.51,58.51,16.91
Gazojak,0,TM,2018-10-22 00:20:32,87,41.19,61.4,38.21,38.21,2.93
Supe,64,PE,2018-10-22 00:20:32,99,-10.8,-77.72,61.97,61.97,13.44
Tevaitoa,56,PF,2018-10-22 00:20:33,94,-16.78,-151.5,81.73,81.73,12.44
Verviers,90,BE,2018-10-21 23:55:00,81,50.59,5.86,50.0,32.0,5.82
Zabaykalsk,64,CN,2018-10-22 00:20:33,92,49.64,117.33,34.07,34.07,1.7
Kruisfontein,0,ZA,2018-10-22 00:20:33,76,-34.0,24.73,60.53,60.53,21.72
Kahului,20,US,2018-10-21 23:56:00,62,20.89,-156.47,87.8,78.8,19.46
Burnie,8,AU,2018-10-22 00:20:34,95,-41.05,145.91,56.93,56.93,15.01
Swan Hill,0,AU,2018-10-22 00:20:37,64,-35.34,143.56,68.23,68.23,11.99
Taoudenni,48,ML,2018-10-22 00:20:38,44,22.68,-3.98,77.68,77.68,12.21
Ashta,32,IN,2018-10-22 00:20:38,73,16.95,74.41,70.61,70.61,5.84
Zapodeni,0,RO,2018-10-22 00:00:00,70,46.75,27.65,51.8,46.4,6.93
Honiara,20,SB,2018-10-22 00:00:00,66,-9.43,159.96,87.8,87.8,6.93
Ostrovnoy,8,RU,2018-10-22 00:20:39,92,68.05,39.51,36.59,36.59,12.66
Miyako,0,JP,2018-10-21 23:30:00,67,33.63,130.94,60.8,60.8,4.7
Horsham,8,AU,2018-10-22 00:20:39,82,-36.71,142.2,64.49,64.49,13.44
Necochea,92,AR,2018-10-22 00:20:39,70,-38.55,-58.74,62.06,62.06,5.61
Mumford,0,GH,2018-10-22 00:20:40,94,5.26,-0.76,78.26,78.26,8.52
Morales,20,CO,2018-10-22 00:20:40,91,8.28,-73.87,76.28,76.28,2.48
Mattru,44,SL,2018-10-22 00:20:40,89,7.62,-11.83,76.24,76.24,3.15
Aviles,75,ES,2018-10-22 00:00:00,93,43.55,-5.92,60.8,60.8,3.36
Praia da Vitoria,90,PT,2018-10-22 00:00:00,93,38.73,-27.07,66.2,66.2,23.73
Moanda,76,CD,2018-10-22 00:20:41,93,-5.93,12.38,75.47,75.47,4.16
Kolyvan,40,RU,2018-10-21 23:30:00,93,55.31,82.74,37.4,37.4,8.95
Marabba,44,SD,2018-10-22 00:20:41,90,12.35,32.18,70.52,70.52,2.82
Yulara,0,AU,2018-10-22 00:00:00,11,-25.24,130.99,86.0,86.0,11.41
Khasan,76,RU,2018-10-22 00:20:42,100,42.43,130.64,54.14,54.14,3.6
Hengyang,92,CN,2018-10-22 00:20:42,100,26.89,112.6,57.61,57.61,4.61
Marakkanam,12,IN,2018-10-22 00:20:42,100,12.2,79.95,75.79,75.79,3.6
Alberton,8,ZA,2018-10-22 00:00:00,58,-26.25,28.13,53.6,53.6,6.93
Naze,48,NG,2018-10-22 00:20:43,92,5.43,7.07,75.02,75.02,5.5
Nabire,76,ID,2018-10-22 00:20:43,89,-3.36,135.5,74.03,74.03,0.81
Meulaboh,0,ID,2018-10-22 00:20:43,100,4.14,96.13,78.13,78.13,5.95
Curug,40,RS,2018-10-22 00:00:00,93,45.47,20.07,48.2,48.2,1.12
Rosetta,0,EG,2018-10-21 23:00:00,83,31.4,30.42,73.4,73.4,6.93
Dubbo,0,AU,2018-10-22 00:00:00,60,-32.25,148.6,73.4,73.4,8.05
Jijiga,36,ET,2018-10-22 00:20:44,73,9.35,42.8,63.41,63.41,4.16
Araouane,20,ML,2018-10-22 00:20:44,25,18.9,-3.53,84.56,84.56,14.67
Perth,0,GB,2018-10-21 23:50:00,70,56.4,-3.43,44.6,44.6,9.17
Saint George,90,GR,2018-10-21 23:50:00,87,39.45,22.34,59.0,59.0,4.7
Yuyao,75,CN,2018-10-21 23:00:00,100,30.04,121.15,62.6,62.6,3.15
Matina,80,CR,2018-10-22 00:20:46,93,10.08,-83.29,75.61,75.61,1.92
Belyy Yar,0,RU,2018-10-21 23:30:00,70,53.6,91.39,44.6,44.6,17.9
Talwara,12,IN,2018-10-22 00:20:49,69,31.94,75.88,55.04,55.04,2.59
Las Vegas,20,US,2018-10-21 23:56:00,44,36.17,-115.15,75.2,71.6,8.05
Hokitika,12,NZ,2018-10-22 00:20:50,93,-42.72,170.96,58.37,58.37,5.61
Salekhard,36,RU,2018-10-22 00:20:51,80,66.54,66.62,18.32,18.32,6.73
Lasa,20,CY,2018-10-22 00:00:00,82,34.92,32.53,66.2,64.4,8.05
Aloleng,0,PH,2018-10-22 00:20:51,95,16.13,119.78,82.54,82.54,5.17
Avera,1,US,2018-10-21 23:55:00,81,33.19,-82.53,57.2,48.2,4.16
Keetmanshoop,100,NA,2018-10-22 00:20:52,40,-26.57,18.15,72.91,72.91,4.72
Gladstone,68,AU,2018-10-22 00:20:52,88,-23.84,151.26,73.99,73.99,4.16
Alice Springs,0,AU,2018-10-22 00:00:00,10,-23.7,133.88,91.4,91.4,9.17
Macieira de Cambra,40,PT,2018-10-22 00:00:00,100,40.86,-8.34,64.4,60.8,2.24
Grand Forks,1,US,2018-10-21 23:55:00,52,47.91,-97.06,57.2,46.4,4.7
Sur,0,OM,2018-10-22 00:20:53,94,22.57,59.53,81.41,81.41,5.84
Batemans Bay,0,AU,2018-10-22 00:20:54,77,-35.71,150.18,65.48,65.48,6.29
Toktogul,0,KG,2018-10-22 00:20:54,74,41.87,72.95,9.86,9.86,1.81
Manta,88,RO,2018-10-22 00:20:54,95,45.1,24.1,50.18,50.18,3.15
Vammala,90,FI,2018-10-21 23:50:00,93,61.34,22.91,53.6,51.8,13.87
Chumikan,56,RU,2018-10-22 00:20:54,98,54.72,135.31,34.03,34.03,0.92
Lazaro Cardenas,90,MX,2018-10-21 23:52:00,100,28.39,-105.62,55.4,55.4,6.93
Sitka,8,US,2018-10-22 00:20:55,25,37.17,-99.65,65.84,65.84,15.46
Novopokrovka,0,RU,2018-10-22 00:20:55,75,45.85,134.51,46.18,46.18,2.26
Vila do Maio,75,CV,2018-10-22 00:00:00,74,15.13,-23.22,78.8,78.8,12.75
Comodoro Rivadavia,75,AR,2018-10-21 23:00:00,50,-45.87,-67.48,55.4,55.4,13.87
Caravelas,92,BR,2018-10-22 00:20:56,100,-17.73,-39.27,75.34,75.34,15.01
Gweta,20,BW,2018-10-22 00:20:56,54,-20.21,25.26,64.13,64.13,22.5
Vidim,0,CZ,2018-10-22 00:00:00,86,50.47,14.53,37.4,35.6,5.82
Popondetta,68,PG,2018-10-22 00:20:57,82,-8.77,148.24,76.19,76.19,0.36
Jalalpur,0,IN,2018-10-22 00:18:45,54,26.31,82.74,67.82,67.82,6.17
Port Moresby,75,PG,2018-10-21 23:00:00,78,-9.47,147.16,82.4,82.4,4.7
Rio Tercero,32,AR,2018-10-22 00:20:58,77,-32.17,-64.11,66.43,66.43,7.74
Gaurela,0,IN,2018-10-22 00:20:58,93,22.75,81.9,62.29,62.29,2.93
Sungaipenuh,88,ID,2018-10-22 00:20:58,97,-2.08,101.38,67.19,67.19,0.02
Byron Bay,40,AU,2018-10-22 00:00:00,64,-28.65,153.62,75.2,75.2,11.41
Dawson Creek,20,CA,2018-10-22 00:00:00,42,55.76,-120.23,46.4,44.6,4.7
Inhambane,64,MZ,2018-10-22 00:20:59,95,-23.87,35.38,67.28,67.28,19.6
Phalodi,0,IN,2018-10-22 00:20:59,52,27.13,72.36,61.48,61.48,4.5
Jinchang,0,CN,2018-10-22 00:20:59,75,38.52,102.19,28.04,28.04,6.73
Amarpur,0,IN,2018-10-22 00:21:00,90,23.52,91.65,63.01,63.01,2.37
Biak,20,ID,2018-10-22 00:21:00,84,-0.91,122.88,82.76,82.76,4.38
Sinop,48,TR,2018-10-22 00:21:00,100,42.03,35.15,63.59,63.59,16.13
Kokoda,80,PG,2018-10-22 00:21:01,90,-8.88,147.74,68.36,68.36,1.92
Van Buren,90,US,2018-10-21 22:56:00,58,47.16,-67.94,35.6,30.2,10.29
Vangaindrano,0,MG,2018-10-22 00:21:01,69,-23.35,47.6,57.56,57.56,5.73
Loandjili,20,CG,2018-10-21 23:00:00,88,-4.77,11.87,77.0,77.0,5.82
Karratha,0,AU,2018-10-22 00:21:01,13,-20.74,116.85,83.93,83.93,4.61
Ngunguru,0,NZ,2018-10-22 00:21:02,93,-35.62,174.5,62.96,62.96,5.73
Saint-Augustin,0,FR,2018-10-22 00:00:00,87,44.83,-0.61,51.8,51.8,3.36
Nsanje,20,MZ,2018-10-22 00:21:02,63,-16.92,35.26,67.78,67.78,10.76
Medea,40,DZ,2018-10-22 00:00:00,93,36.27,2.77,62.6,62.6,3.36
Katangli,0,RU,2018-10-22 00:21:03,100,51.71,143.23,38.21,38.21,8.52
Bonfim,0,BR,2018-10-21 23:00:00,77,-20.33,-44.24,64.4,64.4,8.05
Komsomolskiy,92,RU,2018-10-22 00:21:03,90,67.55,63.78,19.04,19.04,8.75
